OSD.flyTime [s],CUSTOM.date [local],OSD.latitude,OSD.longitude,OSD.height [ft],OSD.altitude [ft],OSD.yaw [360],GIMBAL.pitch,GIMBAL.yaw [360]
0.0,2026-05-20 22:37:07,36.621799580369746,30.517974662857718,150.0,150.0,0.0,-90.0,0.0
0.10019040240059636,2026-05-20 22:37:07,36.62181993753338,30.51800490698687,150.0,150.0,0.0,-90.0,0.0
0.20038080480119272,2026-05-20 22:37:07,36.62184180603275,30.518038462772363,150.0,150.0,0.0,-90.0,0.0
0.3005712072017891,2026-05-20 22:37:07,36.621862356480285,30.51807242528615,150.0,150.0,0.0,-90.0,0.0
0.40076160960238544,2026-05-20 22:37:07,36.621883091765625,30.51810454220051,150.0,150.0,0.0,-90.0,0.0
0.5009520120029818,2026-05-20 22:37:07,36.62190238013748,30.51813405314273,150.0,150.0,0.0,-90.0,0.0
0.6011424144035782,2026-05-20 22:37:07,36.62192352472156,30.518171994774548,150.0,150.0,0.0,-90.0,0.0
0.7013328168041745,2026-05-20 22:37:07,36.62194183533623,30.51820871010021,150.0,150.0,0.0,-90.0,0.0
0.8015232192047709,2026-05-20 22:37:07,36.62196040849693,30.518246988464135,150.0,150.0,0.0,-90.0,0.0
0.9017136216053673,2026-05-20 22:37:07,36.621978923554835,30.51828751095576,150.0,150.0,0.0,-90.0,0.0
1.0019040240059636,2026-05-20 22:37:07,36.62199680325956,30.518325307206407,150.0,150.0,0.0,-90.0,0.0
1.10209442640656,2026-05-20 22:37:07,36.62201812583406,30.518367403370174,150.0,150.0,0.0,-90.0,0.0
1.2022848288071564,2026-05-20 22:37:07,36.62203697117428,30.518408366696633,150.0,150.0,0.0,-90.0,0.0
1.3024752312077528,2026-05-20 22:37:07,36.62206018838853,30.518451713397543,150.0,150.0,0.0,-90.0,0.0
1.402665633608349,2026-05-20 22:37:07,36.622081529693865,30.518494316503187,150.0,150.0,0.0,-90.0,0.0
1.5028560360089454,2026-05-20 22:37:07,36.622096477432336,30.518541737398248,150.0,150.0,0.0,-90.0,0.0
1.6030464384095418,2026-05-20 22:37:07,36.62211686216294,30.518588609158524,150.0,150.0,0.0,-90.0,0.0
1.7032368408101382,2026-05-20 22:37:07,36.62214099497184,30.518635491880108,150.0,150.0,0.0,-90.0,0.0
1.8034272432107346,2026-05-20 22:37:07,36.622162615504436,30.51868343269942,150.0,150.0,0.0,-90.0,0.0
1.9036176456113307,2026-05-20 22:37:07,36.6221830849962,30.518730068940652,150.0,150.0,0.0,-90.0,0.0
2.003808048011927,2026-05-20 22:37:07,36.62220293316843,30.518779911048426,150.0,150.0,0.0,-90.0,0.0
2.1039984504125235,2026-05-20 22:37:07,36.622224928429006,30.51883338297221,150.0,150.0,0.0,-90.0,0.0
2.20418885281312,2026-05-20 22:37:07,36.62224721574498,30.518887538077255,150.0,150.0,0.0,-90.0,0.0
2.3043792552137163,2026-05-20 22:37:07,36.62226226894355,30.51893911237012,150.0,150.0,0.0,-90.0,0.0
2.4045696576143127,2026-05-20 22:37:07,36.62228349550492,30.518992007131484,150.0,150.0,0.0,-90.0,0.0
2.504760060014909,2026-05-20 22:37:07,36.62230254752621,30.5190469662546,150.0,150.0,0.0,-90.0,0.0
2.6049504624155055,2026-05-20 22:37:07,36.62232473620594,30.51909740451088,150.0,150.0,0.0,-90.0,0.0
2.7051408648161015,2026-05-20 22:37:07,36.62234365451884,30.51915508186044,150.0,150.0,0.0,-90.0,0.0
2.805331267216698,2026-05-20 22:37:07,36.62236335721547,30.51921296749922,150.0,150.0,0.0,-90.0,0.0
2.9055216696172943,2026-05-20 22:37:07,36.622387339985025,30.51926863334069,150.0,150.0,0.0,-90.0,0.0
3.0057120720178907,2026-05-20 22:37:07,36.62241005725107,30.5193304860432,150.0,150.0,0.0,-90.0,0.0
3.105902474418487,2026-05-20 22:37:07,36.62243259282575,30.51938725139916,150.0,150.0,0.0,-90.0,0.0
3.2060928768190835,2026-05-20 22:37:07,36.622449796575275,30.519446596222576,150.0,150.0,0.0,-90.0,0.0
3.30628327921968,2026-05-20 22:37:07,36.62246603042117,30.519508880920537,150.0,150.0,0.0,-90.0,0.0
3.4064736816202763,2026-05-20 22:37:07,36.622483570246786,30.51956959801569,150.0,150.0,0.0,-90.0,0.0
3.5066640840208727,2026-05-20 22:37:07,36.62250378717638,30.51963359399361,150.0,150.0,0.0,-90.0,0.0
3.606854486421469,2026-05-20 22:37:07,36.622523065910535,30.519693164474994,150.0,150.0,0.0,-90.0,0.0
3.7070448888220655,2026-05-20 22:37:07,36.62254323137371,30.519754769059038,150.0,150.0,0.0,-90.0,0.0
3.8072352912226615,2026-05-20 22:37:07,36.622559878891295,30.5198226060947,150.0,150.0,0.0,-90.0,0.0
3.907425693623258,2026-05-20 22:37:07,36.62258304761428,30.519889378063848,150.0,150.0,0.0,-90.0,0.0
4.007616096023854,2026-05-20 22:37:07,36.62260375124316,30.51996061526543,150.0,150.0,0.0,-90.0,0.0
4.107806498424451,2026-05-20 22:37:07,36.622624224916066,30.520026481591493,150.0,150.0,0.0,-90.0,0.0
4.207996900825047,2026-05-20 22:37:07,36.6226417298623,30.520094105284517,150.0,150.0,0.0,-90.0,0.0
4.308187303225643,2026-05-20 22:37:07,36.62266444216985,30.520163890076077,150.0,150.0,0.0,-90.0,0.0
4.40837770562624,2026-05-20 22:37:07,36.622682474952036,30.52023591789324,150.0,150.0,0.0,-90.0,0.0
4.508568108026836,2026-05-20 22:37:07,36.62270309556507,30.520304211166213,150.0,150.0,0.0,-90.0,0.0
4.608758510427433,2026-05-20 22:37:07,36.62272155658511,30.520375403261852,150.0,150.0,0.0,-90.0,0.0
4.708948912828029,2026-05-20 22:37:07,36.622740659543275,30.52044826485083,150.0,150.0,0.0,-90.0,0.0
4.8091393152286255,2026-05-20 22:37:07,36.622758059024214,30.52051883338793,150.0,150.0,0.0,-90.0,0.0
4.909329717629221,2026-05-20 22:37:07,36.62277722104746,30.52059283010571,150.0,150.0,0.0,-90.0,0.0
5.009520120029818,2026-05-20 22:37:07,36.62279479730853,30.520665183915767,150.0,150.0,0.0,-90.0,0.0
5.109710522430414,2026-05-20 22:37:07,36.622814174100434,30.52073910698102,150.0,150.0,0.0,-90.0,0.0
5.209900924831011,2026-05-20 22:37:07,36.62283523353192,30.520811400023838,150.0,150.0,0.0,-90.0,0.0
5.310091327231607,2026-05-20 22:37:07,36.62285375831518,30.52088370398978,150.0,150.0,0.0,-90.0,0.0
5.410281729632203,2026-05-20 22:37:07,36.62287474599211,30.520957605120586,150.0,150.0,0.0,-90.0,0.0
5.5104721320328,2026-05-20 22:37:07,36.62289661235522,30.521031053505062,150.0,150.0,0.0,-90.0,0.0
5.610662534433396,2026-05-20 22:37:07,36.62291301507177,30.52110821756525,150.0,150.0,0.0,-90.0,0.0
5.710852936833993,2026-05-20 22:37:07,36.62293499583165,30.521182990933628,150.0,150.0,0.0,-90.0,0.0
5.811043339234589,2026-05-20 22:37:07,36.622952290936425,30.521257235419018,150.0,150.0,0.0,-90.0,0.0
5.9112337416351854,2026-05-20 22:37:07,36.622974027250315,30.52133354827127,150.0,150.0,0.0,-90.0,0.0
6.011424144035781,2026-05-20 22:37:07,36.622996324918226,30.52141216961423,150.0,150.0,0.0,-90.0,0.0
6.111614546436378,2026-05-20 22:37:07,36.623016921298685,30.521486807189298,150.0,150.0,0.0,-90.0,0.0
6.211804948836974,2026-05-20 22:37:07,36.6230335379296,30.52156340675525,150.0,150.0,0.0,-90.0,0.0
6.311995351237571,2026-05-20 22:37:07,36.6230551013945,30.52164082836058,150.0,150.0,0.0,-90.0,0.0
6.412185753638167,2026-05-20 22:37:07,36.62307472174176,30.521717500570542,150.0,150.0,0.0,-90.0,0.0
6.512376156038763,2026-05-20 22:37:07,36.62309828480897,30.521795835777088,150.0,150.0,0.0,-90.0,0.0
6.61256655843936,2026-05-20 22:37:07,36.62311615267854,30.521877036664534,150.0,150.0,0.0,-90.0,0.0
6.712756960839956,2026-05-20 22:37:07,36.62313905052261,30.52195577519932,150.0,150.0,0.0,-90.0,0.0
6.812947363240553,2026-05-20 22:37:07,36.62315873205236,30.52203722011243,150.0,150.0,0.0,-90.0,0.0
6.913137765641149,2026-05-20 22:37:07,36.623175782893,30.52211632552481,150.0,150.0,0.0,-90.0,0.0
7.013328168041745,2026-05-20 22:37:07,36.62319550144643,30.522195655558804,150.0,150.0,0.0,-90.0,0.0
7.113518570442341,2026-05-20 22:37:07,36.62321708097915,30.522271806396986,150.0,150.0,0.0,-90.0,0.0
7.213708972842938,2026-05-20 22:37:07,36.623234773938215,30.522349270784435,150.0,150.0,0.0,-90.0,0.0
7.313899375243534,2026-05-20 22:37:07,36.62325542663811,30.522427525646506,150.0,150.0,0.0,-90.0,0.0
7.414089777644131,2026-05-20 22:37:07,36.623275103436555,30.52250451814256,150.0,150.0,0.0,-90.0,0.0
7.514280180044727,2026-05-20 22:37:07,36.62329220055319,30.522582773798128,150.0,150.0,0.0,-90.0,0.0
7.614470582445323,2026-05-20 22:37:07,36.62331227726879,30.522661552288373,150.0,150.0,0.0,-90.0,0.0
7.71466098484592,2026-05-20 22:37:07,36.62332890786744,30.522743263231703,150.0,150.0,0.0,-90.0,0.0
7.814851387246516,2026-05-20 22:37:07,36.623350145705444,30.522821171320736,150.0,150.0,0.0,-90.0,0.0
7.915041789647113,2026-05-20 22:37:07,36.62336696710394,30.52290078989771,150.0,150.0,0.0,-90.0,0.0
8.015232192047709,2026-05-20 22:37:07,36.623386805054274,30.522980795893147,150.0,150.0,0.0,-90.0,0.0
8.115422594448304,2026-05-20 22:37:07,36.62340585431401,30.523057941117415,150.0,150.0,0.0,-90.0,0.0
8.215612996848902,2026-05-20 22:37:07,36.62342749485135,30.523136090627343,150.0,150.0,0.0,-90.0,0.0
8.315803399249498,2026-05-20 22:37:07,36.62344629522598,30.52321578756098,150.0,150.0,0.0,-90.0,0.0
8.415993801650094,2026-05-20 22:37:07,36.623467740415634,30.523299190392024,150.0,150.0,0.0,-90.0,0.0
8.51618420405069,2026-05-20 22:37:07,36.623484973477,30.52337921130264,150.0,150.0,0.0,-90.0,0.0
8.616374606451286,2026-05-20 22:37:07,36.62350580227417,30.523457032346105,150.0,150.0,0.0,-90.0,0.0
8.716565008851884,2026-05-20 22:37:07,36.62352824328317,30.523535162981002,150.0,150.0,0.0,-90.0,0.0
8.81675541125248,2026-05-20 22:37:07,36.62354893108411,30.5236155222018,150.0,150.0,0.0,-90.0,0.0
8.916945813653076,2026-05-20 22:37:07,36.623565823637485,30.52369529467296,150.0,150.0,0.0,-90.0,0.0
9.017136216053672,2026-05-20 22:37:07,36.62358822923355,30.523771561899846,150.0,150.0,0.0,-90.0,0.0
9.11732661845427,2026-05-20 22:37:07,36.62360588286353,30.52384943225164,150.0,150.0,0.0,-90.0,0.0
9.217517020854865,2026-05-20 22:37:07,36.623626450316515,30.523925309785216,150.0,150.0,0.0,-90.0,0.0
9.317707423255461,2026-05-20 22:37:07,36.623648523545484,30.524000433178976,150.0,150.0,0.0,-90.0,0.0
9.417897825656057,2026-05-20 22:37:07,36.623669497636044,30.524075437431552,150.0,150.0,0.0,-90.0,0.0
9.518088228056655,2026-05-20 22:37:07,36.6236882812883,30.524156108842018,150.0,150.0,0.0,-90.0,0.0
9.618278630457251,2026-05-20 22:37:07,36.62370571440402,30.524231938620755,150.0,150.0,0.0,-90.0,0.0
9.718469032857847,2026-05-20 22:37:07,36.623726870613694,30.524311984201955,150.0,150.0,0.0,-90.0,0.0
9.818659435258443,2026-05-20 22:37:07,36.623744182001026,30.52438776865755,150.0,150.0,0.0,-90.0,0.0
9.918849837659039,2026-05-20 22:37:07,36.623763946975345,30.524466323022175,150.0,150.0,0.0,-90.0,0.0
10.019040240059637,2026-05-20 22:37:07,36.62378305639563,30.524541303789103,150.0,150.0,0.0,-90.0,0.0
10.119230642460233,2026-05-20 22:37:07,36.623800655122764,30.52461795663777,150.0,150.0,0.0,-90.0,0.0
10.219421044860828,2026-05-20 22:37:07,36.62381812697874,30.524690784626305,150.0,150.0,0.0,-90.0,0.0
10.319611447261424,2026-05-20 22:37:07,36.623839380154315,30.524764338107058,150.0,150.0,0.0,-90.0,0.0
10.419801849662022,2026-05-20 22:37:07,36.62385856374494,30.524836999971782,150.0,150.0,0.0,-90.0,0.0
10.519992252062618,2026-05-20 22:37:07,36.62387932511606,30.52491008703248,150.0,150.0,0.0,-90.0,0.0
10.620182654463214,2026-05-20 22:37:07,36.623898194727786,30.52498455571748,150.0,150.0,0.0,-90.0,0.0
10.72037305686381,2026-05-20 22:37:07,36.62391949965776,30.525059112590807,150.0,150.0,0.0,-90.0,0.0
10.820563459264406,2026-05-20 22:37:07,36.623937980664294,30.52513055362853,150.0,150.0,0.0,-90.0,0.0
10.920753861665004,2026-05-20 22:37:07,36.62395750844984,30.525202200009307,150.0,150.0,0.0,-90.0,0.0
11.0209442640656,2026-05-20 22:37:07,36.62397642675086,30.525273048804884,150.0,150.0,0.0,-90.0,0.0
11.121134666466196,2026-05-20 22:37:07,36.62399614736031,30.52534299403051,150.0,150.0,0.0,-90.0,0.0
11.221325068866792,2026-05-20 22:37:07,36.62401528296188,30.525407946497786,150.0,150.0,0.0,-90.0,0.0
11.32151547126739,2026-05-20 22:37:07,36.624038130207,30.525474459350644,150.0,150.0,0.0,-90.0,0.0
11.421705873667985,2026-05-20 22:37:07,36.624057684622656,30.52553866732568,150.0,150.0,0.0,-90.0,0.0
11.521896276068581,2026-05-20 22:37:07,36.62408140622403,30.525608631807316,150.0,150.0,0.0,-90.0,0.0
11.622086678469177,2026-05-20 22:37:07,36.62410118319891,30.52567651608736,150.0,150.0,0.0,-90.0,0.0
11.722277080869775,2026-05-20 22:37:07,36.62412091827965,30.525741567431492,150.0,150.0,0.0,-90.0,0.0
11.822467483270371,2026-05-20 22:37:07,36.624141899753546,30.52580934285712,150.0,150.0,0.0,-90.0,0.0
11.922657885670967,2026-05-20 22:37:07,36.624163630436044,30.525869960770223,150.0,150.0,0.0,-90.0,0.0
12.022848288071563,2026-05-20 22:37:07,36.62418587983939,30.52593695223802,150.0,150.0,0.0,-90.0,0.0
12.123038690472159,2026-05-20 22:37:07,36.62420229351671,30.525999191217167,150.0,150.0,0.0,-90.0,0.0
12.223229092872756,2026-05-20 22:37:07,36.62422363645113,30.52606238981691,150.0,150.0,0.0,-90.0,0.0
12.323419495273352,2026-05-20 22:37:07,36.62424373413323,30.52612687134652,150.0,150.0,0.0,-90.0,0.0
12.423609897673948,2026-05-20 22:37:07,36.62425891656309,30.52618879450562,150.0,150.0,0.0,-90.0,0.0
12.523800300074544,2026-05-20 22:37:07,36.62428243457657,30.526252834073624,150.0,150.0,0.0,-90.0,0.0
12.623990702475142,2026-05-20 22:37:07,36.62430119243225,30.526309814543037,150.0,150.0,0.0,-90.0,0.0
12.724181104875738,2026-05-20 22:37:07,36.624318210562876,30.526369902818644,150.0,150.0,0.0,-90.0,0.0
12.824371507276334,2026-05-20 22:37:07,36.62433589166209,30.52642484337876,150.0,150.0,0.0,-90.0,0.0
12.92456190967693,2026-05-20 22:37:07,36.62435772724837,30.526481537283463,150.0,150.0,0.0,-90.0,0.0
13.024752312077526,2026-05-20 22:37:07,36.624376954514055,30.5265338039245,150.0,150.0,0.0,-90.0,0.0
13.124942714478124,2026-05-20 22:37:07,36.624396814828486,30.526585193039182,150.0,150.0,0.0,-90.0,0.0
13.22513311687872,2026-05-20 22:37:07,36.6244164583138,30.52663915864848,150.0,150.0,0.0,-90.0,0.0
13.325323519279316,2026-05-20 22:37:07,36.62443661204022,30.526690962751147,150.0,150.0,0.0,-90.0,0.0
13.425513921679912,2026-05-20 22:37:07,36.62445624176881,30.526740563077794,150.0,150.0,0.0,-90.0,0.0
13.52570432408051,2026-05-20 22:37:07,36.62447783519924,30.526787213400798,150.0,150.0,0.0,-90.0,0.0
13.625894726481105,2026-05-20 22:37:07,36.62449523949544,30.526840529666778,150.0,150.0,0.0,-90.0,0.0
13.726085128881701,2026-05-20 22:37:07,36.62451354311209,30.52688765499301,150.0,150.0,0.0,-90.0,0.0
13.826275531282297,2026-05-20 22:37:07,36.62453448279693,30.526932597262658,150.0,150.0,0.0,-90.0,0.0
13.926465933682893,2026-05-20 22:37:07,36.62455073094737,30.526982447826278,150.0,150.0,0.0,-90.0,0.0
14.02665633608349,2026-05-20 22:37:07,36.62457512083744,30.5270291030941,150.0,150.0,0.0,-90.0,0.0
14.126846738484087,2026-05-20 22:37:07,36.624594863034375,30.527076847865054,150.0,150.0,0.0,-90.0,0.0
14.227037140884683,2026-05-20 22:37:07,36.624615001237984,30.527122893898373,150.0,150.0,0.0,-90.0,0.0
14.327227543285279,2026-05-20 22:37:07,36.624634977082756,30.527165869108096,150.0,150.0,0.0,-90.0,0.0
14.427417945685876,2026-05-20 22:37:07,36.62465237522396,30.52721406547217,150.0,150.0,0.0,-90.0,0.0
14.527608348086472,2026-05-20 22:37:07,36.62467365979176,30.527254384344765,150.0,150.0,0.0,-90.0,0.0
14.627798750487068,2026-05-20 22:37:07,36.62469019088142,30.527292897183692,150.0,150.0,0.0,-90.0,0.0
14.727989152887664,2026-05-20 22:37:07,36.62470981109819,30.5273349688179,150.0,150.0,0.0,-90.0,0.0
14.828179555288262,2026-05-20 22:37:07,36.62473022317972,30.527372497050898,150.0,150.0,0.0,-90.0,0.0
14.928369957688858,2026-05-20 22:37:07,36.6247523181808,30.527408317937212,150.0,150.0,0.0,-90.0,0.0
15.028560360089454,2026-05-20 22:37:07,36.6247743018112,30.527445301387534,150.0,150.0,0.0,-90.0,0.0
15.12875076249005,2026-05-20 22:37:07,36.62479347107201,30.527480803871885,150.0,150.0,0.0,-90.0,0.0
15.228941164890646,2026-05-20 22:37:07,36.62481593575519,30.527515777699808,150.0,150.0,0.0,-90.0,0.0
15.329131567291244,2026-05-20 22:37:07,36.62483659534045,30.52755113589269,150.0,150.0,0.0,-90.0,0.0
15.42932196969184,2026-05-20 22:37:07,36.624853743963904,30.527580876192893,150.0,150.0,0.0,-90.0,0.0
15.529512372092436,2026-05-20 22:37:07,36.62487433237503,30.52761056165904,150.0,150.0,0.0,-90.0,0.0
15.629702774493031,2026-05-20 22:37:07,36.624893956602165,30.527641152938255,150.0,150.0,0.0,-90.0,0.0
15.72989317689363,2026-05-20 22:37:07,36.62491457833062,30.527672649443986,150.0,150.0,0.0,-90.0,0.0
15.830083579294225,2026-05-20 22:37:07,36.62493537672343,30.527702962552073,150.0,150.0,0.0,-90.0,0.0
15.930273981694821,2026-05-20 22:37:07,36.6249557137333,30.527729462701686,150.0,150.0,0.0,-90.0,0.0
16.030464384095417,2026-05-20 22:37:07,36.624976547500616,30.52775907832607,150.0,150.0,0.0,-90.0,0.0
16.130654786496013,2026-05-20 22:37:07,36.624996370125686,30.52778183450394,150.0,150.0,0.0,-90.0,0.0
16.23084518889661,2026-05-20 22:37:07,36.62501944552978,30.52780327651125,150.0,150.0,0.0,-90.0,0.0
16.331035591297205,2026-05-20 22:37:07,36.62503817570831,30.527825246244856,150.0,150.0,0.0,-90.0,0.0
16.431225993697804,2026-05-20 22:37:07,36.62505593278292,30.527850221985616,150.0,150.0,0.0,-90.0,0.0
16.5314163960984,2026-05-20 22:37:07,36.62507696809001,30.527870212932875,150.0,150.0,0.0,-90.0,0.0
16.631606798498996,2026-05-20 22:37:07,36.62509743152939,30.527887999938763,150.0,150.0,0.0,-90.0,0.0
16.731797200899592,2026-05-20 22:37:07,36.62511739283975,30.52790729200602,150.0,150.0,0.0,-90.0,0.0
16.83198760330019,2026-05-20 22:37:07,36.625139289309644,30.52792506506691,150.0,150.0,0.0,-90.0,0.0
16.932178005700784,2026-05-20 22:37:07,36.62515822162016,30.527942950865363,150.0,150.0,0.0,-90.0,0.0
17.03236840810138,2026-05-20 22:37:07,36.62517692865095,30.527961723434927,150.0,150.0,0.0,-90.0,0.0
17.132558810501976,2026-05-20 22:37:07,36.62519642850676,30.527975757927678,150.0,150.0,0.0,-90.0,0.0
17.232749212902572,2026-05-20 22:37:07,36.62521577209403,30.527995474836615,150.0,150.0,0.0,-90.0,0.0
17.33293961530317,2026-05-20 22:37:07,36.625234983795764,30.52800987482192,150.0,150.0,0.0,-90.0,0.0
17.433130017703768,2026-05-20 22:37:07,36.625254010501415,30.528022472460602,150.0,150.0,0.0,-90.0,0.0
17.533320420104364,2026-05-20 22:37:07,36.62527576091039,30.528034279342457,150.0,150.0,0.0,-90.0,0.0
17.63351082250496,2026-05-20 22:37:07,36.6252956677204,30.528045285655057,150.0,150.0,0.0,-90.0,0.0
17.733701224905555,2026-05-20 22:37:07,36.62531318286773,30.52805614773185,150.0,150.0,0.0,-90.0,0.0
17.83389162730615,2026-05-20 22:37:07,36.62533320106857,30.5280670705937,150.0,150.0,0.0,-90.0,0.0
17.934082029706747,2026-05-20 22:37:07,36.62535628702653,30.528078426927657,150.0,150.0,0.0,-90.0,0.0
18.034272432107343,2026-05-20 22:37:07,36.62537104437324,30.528085604485057,150.0,150.0,0.0,-90.0,0.0
18.134462834507943,2026-05-20 22:37:07,36.62539196287073,30.52809352560049,150.0,150.0,0.0,-90.0,0.0
18.23465323690854,2026-05-20 22:37:07,36.62541023441129,30.52809869194718,150.0,150.0,0.0,-90.0,0.0
18.334843639309135,2026-05-20 22:37:07,36.625434538969515,30.528105056494248,150.0,150.0,0.0,-90.0,0.0
18.43503404170973,2026-05-20 22:37:07,36.625456872109964,30.528107033959493,150.0,150.0,0.0,-90.0,0.0
18.535224444110327,2026-05-20 22:37:07,36.62547597255569,30.528113274519118,150.0,150.0,0.0,-90.0,0.0
18.635414846510923,2026-05-20 22:37:07,36.62549669267847,30.528116788570593,150.0,150.0,0.0,-90.0,0.0
18.73560524891152,2026-05-20 22:37:07,36.62551773188486,30.528120382078537,150.0,150.0,0.0,-90.0,0.0
18.835795651312115,2026-05-20 22:37:07,36.625538485227416,30.528119504539543,150.0,150.0,0.0,-90.0,0.0
18.93598605371271,2026-05-20 22:37:07,36.625558890211394,30.528122941371688,150.0,150.0,0.0,-90.0,0.0
19.03617645611331,2026-05-20 22:37:07,36.625578814953066,30.5281254282363,150.0,150.0,0.0,-90.0,0.0
19.136366858513906,2026-05-20 22:37:07,36.62559744819567,30.528124380220497,150.0,150.0,0.0,-90.0,0.0
19.236557260914502,2026-05-20 22:37:07,36.625618837576724,30.528118930626313,150.0,150.0,0.0,-90.0,0.0
19.336747663315098,2026-05-20 22:37:07,36.62563824017845,30.528117011419088,150.0,150.0,0.0,-90.0,0.0
19.436938065715694,2026-05-20 22:37:07,36.6256592122331,30.52811086551025,150.0,150.0,0.0,-90.0,0.0
19.53712846811629,2026-05-20 22:37:07,36.62567905754376,30.52810597746412,150.0,150.0,0.0,-90.0,0.0
19.637318870516886,2026-05-20 22:37:07,36.62569810024002,30.5281012467506,150.0,150.0,0.0,-90.0,0.0
19.73750927291748,2026-05-20 22:37:07,36.625722610849735,30.528094330807004,150.0,150.0,0.0,-90.0,0.0
19.837699675318078,2026-05-20 22:37:07,36.62574306811889,30.528092556630533,150.0,150.0,0.0,-90.0,0.0
19.937890077718677,2026-05-20 22:37:07,36.62576336074438,30.528084343291802,150.0,150.0,0.0,-90.0,0.0
20.038080480119273,2026-05-20 22:37:07,36.62578474881392,30.528077815389132,150.0,150.0,0.0,-90.0,0.0
20.13827088251987,2026-05-20 22:37:07,36.62580460112171,30.52806956805445,150.0,150.0,0.0,-90.0,0.0
20.238461284920465,2026-05-20 22:37:07,36.62582211052531,30.528060135561052,150.0,150.0,0.0,-90.0,0.0
20.33865168732106,2026-05-20 22:37:07,36.625844241014626,30.52805309448517,150.0,150.0,0.0,-90.0,0.0
20.438842089721657,2026-05-20 22:37:07,36.62586473826353,30.528040636852435,150.0,150.0,0.0,-90.0,0.0
20.539032492122253,2026-05-20 22:37:07,36.62588341920685,30.52802865275673,150.0,150.0,0.0,-90.0,0.0
20.63922289452285,2026-05-20 22:37:07,36.62590619893077,30.52801571666361,150.0,150.0,0.0,-90.0,0.0
20.739413296923445,2026-05-20 22:37:07,36.62592519250589,30.52800246755438,150.0,150.0,0.0,-90.0,0.0
20.839603699324044,2026-05-20 22:37:07,36.62594695429051,30.527990602916727,150.0,150.0,0.0,-90.0,0.0
20.93979410172464,2026-05-20 22:37:07,36.62596982000531,30.527974472058073,150.0,150.0,0.0,-90.0,0.0
21.039984504125236,2026-05-20 22:37:07,36.62599216812574,30.527958844771145,150.0,150.0,0.0,-90.0,0.0
21.140174906525832,2026-05-20 22:37:07,36.62601306264197,30.52794525168606,150.0,150.0,0.0,-90.0,0.0
21.240365308926428,2026-05-20 22:37:07,36.62603153425864,30.527930755791097,150.0,150.0,0.0,-90.0,0.0
21.340555711327024,2026-05-20 22:37:07,36.62605145242066,30.527913706397154,150.0,150.0,0.0,-90.0,0.0
21.44074611372762,2026-05-20 22:37:07,36.62607077466248,30.527891833285597,150.0,150.0,0.0,-90.0,0.0
21.540936516128216,2026-05-20 22:37:07,36.62609099515815,30.527874755049453,150.0,150.0,0.0,-90.0,0.0
21.641126918528812,2026-05-20 22:37:07,36.62610856922824,30.52785648950759,150.0,150.0,0.0,-90.0,0.0
21.74131732092941,2026-05-20 22:37:07,36.62612611763871,30.527843080260382,150.0,150.0,0.0,-90.0,0.0
21.841507723330007,2026-05-20 22:37:07,36.62614587687633,30.527826542124394,150.0,150.0,0.0,-90.0,0.0
21.941698125730603,2026-05-20 22:37:07,36.62616888939993,30.52781023380004,150.0,150.0,0.0,-90.0,0.0
22.0418885281312,2026-05-20 22:37:07,36.62618931769467,30.52779452758631,150.0,150.0,0.0,-90.0,0.0
22.142078930531795,2026-05-20 22:37:07,36.62621038509525,30.527775481088348,150.0,150.0,0.0,-90.0,0.0
22.24226933293239,2026-05-20 22:37:07,36.626231504994806,30.52775656573303,150.0,150.0,0.0,-90.0,0.0
22.342459735332987,2026-05-20 22:37:07,36.626247408238896,30.527734140056097,150.0,150.0,0.0,-90.0,0.0
22.442650137733583,2026-05-20 22:37:07,36.62626563105465,30.52771509365734,150.0,150.0,0.0,-90.0,0.0
22.54284054013418,2026-05-20 22:37:07,36.62628485759152,30.52769766388158,150.0,150.0,0.0,-90.0,0.0
22.64303094253478,2026-05-20 22:37:07,36.626300414704836,30.52767610668302,150.0,150.0,0.0,-90.0,0.0
22.743221344935375,2026-05-20 22:37:07,36.62631932591454,30.52765629587937,150.0,150.0,0.0,-90.0,0.0
22.84341174733597,2026-05-20 22:37:07,36.62634019698888,30.52763744389835,150.0,150.0,0.0,-90.0,0.0
22.943602149736567,2026-05-20 22:37:07,36.626360460646154,30.527620467701244,150.0,150.0,0.0,-90.0,0.0
23.043792552137162,2026-05-20 22:37:07,36.626386316885785,30.527598083867247,150.0,150.0,0.0,-90.0,0.0
23.14398295453776,2026-05-20 22:37:07,36.626405438726145,30.527576976663774,150.0,150.0,0.0,-90.0,0.0
23.244173356938354,2026-05-20 22:37:07,36.62642583653126,30.527561228324654,150.0,150.0,0.0,-90.0,0.0
23.34436375933895,2026-05-20 22:37:07,36.62644540876629,30.527546242074585,150.0,150.0,0.0,-90.0,0.0
23.44455416173955,2026-05-20 22:37:07,36.62646276113636,30.527528812778986,150.0,150.0,0.0,-90.0,0.0
23.544744564140146,2026-05-20 22:37:07,36.626482101255434,30.52751111310608,150.0,150.0,0.0,-90.0,0.0
23.644934966540742,2026-05-20 22:37:07,36.62650104213282,30.527489514215716,150.0,150.0,0.0,-90.0,0.0
23.745125368941338,2026-05-20 22:37:07,36.62652210887768,30.52746845227376,150.0,150.0,0.0,-90.0,0.0
23.845315771341934,2026-05-20 22:37:07,36.62654287812731,30.527449751802855,150.0,150.0,0.0,-90.0,0.0
23.94550617374253,2026-05-20 22:37:07,36.626564831342094,30.52743001697468,150.0,150.0,0.0,-90.0,0.0
24.045696576143126,2026-05-20 22:37:07,36.626579498751205,30.52740758416752,150.0,150.0,0.0,-90.0,0.0
24.14588697854372,2026-05-20 22:37:07,36.626600640560625,30.527388800006747,150.0,150.0,0.0,-90.0,0.0
24.246077380944318,2026-05-20 22:37:07,36.62662096762286,30.527368092759996,150.0,150.0,0.0,-90.0,0.0
24.346267783344917,2026-05-20 22:37:07,36.62664392976567,30.52734810751791,150.0,150.0,0.0,-90.0,0.0
24.446458185745513,2026-05-20 22:37:07,36.62666372362574,30.52732579724055,150.0,150.0,0.0,-90.0,0.0
24.54664858814611,2026-05-20 22:37:07,36.62668185342607,30.52730836444131,150.0,150.0,0.0,-90.0,0.0
24.646838990546705,2026-05-20 22:37:07,36.62670291714953,30.527287887582343,150.0,150.0,0.0,-90.0,0.0
24.7470293929473,2026-05-20 22:37:07,36.62671968819061,30.527266610399767,150.0,150.0,0.0,-90.0,0.0
24.847219795347897,2026-05-20 22:37:07,36.62673886916441,30.52725060333187,150.0,150.0,0.0,-90.0,0.0
24.947410197748493,2026-05-20 22:37:07,36.62675853746285,30.52722990089095,150.0,150.0,0.0,-90.0,0.0
25.04760060014909,2026-05-20 22:37:07,36.62678331094977,30.52721105068763,150.0,150.0,0.0,-90.0,0.0
25.147791002549685,2026-05-20 22:37:07,36.62680293273919,30.527192192449085,150.0,150.0,0.0,-90.0,0.0
25.247981404950284,2026-05-20 22:37:07,36.62682219115047,30.527172624559487,150.0,150.0,0.0,-90.0,0.0
25.34817180735088,2026-05-20 22:37:07,36.626841267205805,30.52715622112901,150.0,150.0,0.0,-90.0,0.0
25.448362209751476,2026-05-20 22:37:07,36.62686216954541,30.52713914471201,150.0,150.0,0.0,-90.0,0.0
25.548552612152072,2026-05-20 22:37:07,36.626880019188015,30.52712429962236,150.0,150.0,0.0,-90.0,0.0
25.648743014552668,2026-05-20 22:37:07,36.626901217313005,30.527109965132322,150.0,150.0,0.0,-90.0,0.0
25.748933416953264,2026-05-20 22:37:07,36.62691837883746,30.52709635575458,150.0,150.0,0.0,-90.0,0.0
25.84912381935386,2026-05-20 22:37:07,36.626940315024655,30.527082627846024,150.0,150.0,0.0,-90.0,0.0
25.949314221754456,2026-05-20 22:37:07,36.626955110377715,30.52706720052406,150.0,150.0,0.0,-90.0,0.0
26.049504624155052,2026-05-20 22:37:07,36.62697635448948,30.52705230994389,150.0,150.0,0.0,-90.0,0.0
26.14969502655565,2026-05-20 22:37:07,36.626995926194205,30.527039383691243,150.0,150.0,0.0,-90.0,0.0
26.249885428956247,2026-05-20 22:37:07,36.62701436081501,30.52702256104328,150.0,150.0,0.0,-90.0,0.0
26.350075831356843,2026-05-20 22:37:07,36.62703266182062,30.52701128916251,150.0,150.0,0.0,-90.0,0.0
26.45026623375744,2026-05-20 22:37:07,36.62705289887465,30.527002264044324,150.0,150.0,0.0,-90.0,0.0
26.550456636158035,2026-05-20 22:37:07,36.62707399669943,30.526989768679663,150.0,150.0,0.0,-90.0,0.0
26.65064703855863,2026-05-20 22:37:07,36.62708923456138,30.52697964343702,150.0,150.0,0.0,-90.0,0.0
26.750837440959227,2026-05-20 22:37:07,36.62710978145711,30.526971225903484,150.0,150.0,0.0,-90.0,0.0
26.851027843359823,2026-05-20 22:37:07,36.62712956148942,30.52695775407373,150.0,150.0,0.0,-90.0,0.0
26.95121824576042,2026-05-20 22:37:07,36.62715067335843,30.52695000670078,150.0,150.0,0.0,-90.0,0.0
27.05140864816102,2026-05-20 22:37:07,36.627172873692,30.52694080115612,150.0,150.0,0.0,-90.0,0.0
27.151599050561614,2026-05-20 22:37:07,36.62719407456719,30.526936006462748,150.0,150.0,0.0,-90.0,0.0
27.25178945296221,2026-05-20 22:37:07,36.62721036207755,30.526929108368765,150.0,150.0,0.0,-90.0,0.0
27.351979855362806,2026-05-20 22:37:07,36.627230217987254,30.526921394661773,150.0,150.0,0.0,-90.0,0.0
27.452170257763402,2026-05-20 22:37:07,36.62725058142291,30.526916932974004,150.0,150.0,0.0,-90.0,0.0
27.552360660164,2026-05-20 22:37:07,36.62727251422724,30.526911387928095,150.0,150.0,0.0,-90.0,0.0
27.652551062564594,2026-05-20 22:37:07,36.62729421041327,30.526908225269857,150.0,150.0,0.0,-90.0,0.0
27.75274146496519,2026-05-20 22:37:07,36.62731518879337,30.526908750988174,150.0,150.0,0.0,-90.0,0.0
27.852931867365786,2026-05-20 22:37:07,36.62733373989596,30.526905546287267,150.0,150.0,0.0,-90.0,0.0
27.953122269766386,2026-05-20 22:37:07,36.62735445459734,30.526903826777517,150.0,150.0,0.0,-90.0,0.0
28.05331267216698,2026-05-20 22:37:07,36.62737664573121,30.526905108827744,150.0,150.0,0.0,-90.0,0.0
28.153503074567578,2026-05-20 22:37:07,36.627396749197146,30.526903890075264,150.0,150.0,0.0,-90.0,0.0
28.253693476968174,2026-05-20 22:37:07,36.62741538417188,30.526902224258173,150.0,150.0,0.0,-90.0,0.0
28.35388387936877,2026-05-20 22:37:07,36.62743333854421,30.526902676765367,150.0,150.0,0.0,-90.0,0.0
28.454074281769365,2026-05-20 22:37:07,36.627454238352826,30.526905907577113,150.0,150.0,0.0,-90.0,0.0
28.55426468416996,2026-05-20 22:37:07,36.62747183792975,30.52691070252297,150.0,150.0,0.0,-90.0,0.0
28.654455086570557,2026-05-20 22:37:07,36.62749154374584,30.526910702111046,150.0,150.0,0.0,-90.0,0.0
28.754645488971157,2026-05-20 22:37:07,36.627510067099536,30.526912514302545,150.0,150.0,0.0,-90.0,0.0
28.854835891371753,2026-05-20 22:37:07,36.627531226500395,30.5269205718783,150.0,150.0,0.0,-90.0,0.0
28.95502629377235,2026-05-20 22:37:07,36.627552679254165,30.526930515961123,150.0,150.0,0.0,-90.0,0.0
29.055216696172945,2026-05-20 22:37:07,36.62757107245301,30.5269360751158,150.0,150.0,0.0,-90.0,0.0
29.15540709857354,2026-05-20 22:37:07,36.62759164126224,30.526944694405728,150.0,150.0,0.0,-90.0,0.0
29.255597500974137,2026-05-20 22:37:07,36.62761476143721,30.526953314761126,150.0,150.0,0.0,-90.0,0.0
29.355787903374733,2026-05-20 22:37:07,36.627633970993216,30.526966659861298,150.0,150.0,0.0,-90.0,0.0
29.45597830577533,2026-05-20 22:37:07,36.627652131076985,30.526977564929144,150.0,150.0,0.0,-90.0,0.0
29.556168708175925,2026-05-20 22:37:07,36.62766973017627,30.526992235811797,150.0,150.0,0.0,-90.0,0.0
29.656359110576524,2026-05-20 22:37:07,36.62769157632277,30.527003890961566,150.0,150.0,0.0,-90.0,0.0
29.75654951297712,2026-05-20 22:37:07,36.627711174892205,30.527017485583034,150.0,150.0,0.0,-90.0,0.0
29.856739915377716,2026-05-20 22:37:07,36.627733017499516,30.527033657261235,150.0,150.0,0.0,-90.0,0.0
29.956930317778312,2026-05-20 22:37:07,36.627755823367195,30.527052178450067,150.0,150.0,0.0,-90.0,0.0
30.057120720178908,2026-05-20 22:37:07,36.6277787046346,30.527065961814465,150.0,150.0,0.0,-90.0,0.0
30.157311122579504,2026-05-20 22:37:07,36.627798326274025,30.52708277984721,150.0,150.0,0.0,-90.0,0.0
30.2575015249801,2026-05-20 22:37:07,36.62781748638128,30.527098767649502,150.0,150.0,0.0,-90.0,0.0
30.357691927380696,2026-05-20 22:37:07,36.62783549797549,30.527114094629567,150.0,150.0,0.0,-90.0,0.0
30.45788232978129,2026-05-20 22:37:07,36.62785641788115,30.527132449095205,150.0,150.0,0.0,-90.0,0.0
30.55807273218189,2026-05-20 22:37:07,36.62787508202438,30.527154629366017,150.0,150.0,0.0,-90.0,0.0
30.658263134582487,2026-05-20 22:37:07,36.627894912143255,30.52717929817157,150.0,150.0,0.0,-90.0,0.0
30.758453536983083,2026-05-20 22:37:07,36.62791577165053,30.5272033072834,150.0,150.0,0.0,-90.0,0.0
30.85864393938368,2026-05-20 22:37:07,36.627934849772515,30.52722850565301,150.0,150.0,0.0,-90.0,0.0
30.958834341784275,2026-05-20 22:37:07,36.62795524872558,30.52725110038244,150.0,150.0,0.0,-90.0,0.0
31.05902474418487,2026-05-20 22:37:07,36.62797104745695,30.527279680771027,150.0,150.0,0.0,-90.0,0.0
31.159215146585467,2026-05-20 22:37:07,36.62799165102907,30.52730663451054,150.0,150.0,0.0,-90.0,0.0
31.259405548986063,2026-05-20 22:37:07,36.628012664305665,30.52733130466241,150.0,150.0,0.0,-90.0,0.0
31.35959595138666,2026-05-20 22:37:07,36.62803140156412,30.527359707431145,150.0,150.0,0.0,-90.0,0.0
31.45978635378726,2026-05-20 22:37:07,36.62805348268341,30.527393059506082,150.0,150.0,0.0,-90.0,0.0
31.559976756187854,2026-05-20 22:37:07,36.6280787570802,30.527421487080694,150.0,150.0,0.0,-90.0,0.0
31.66016715858845,2026-05-20 22:37:07,36.6280993312319,30.527455685789118,150.0,150.0,0.0,-90.0,0.0
31.760357560989046,2026-05-20 22:37:07,36.628118972489965,30.52749140296454,150.0,150.0,0.0,-90.0,0.0
31.860547963389642,2026-05-20 22:37:07,36.62813969891324,30.527525666580615,150.0,150.0,0.0,-90.0,0.0
31.960738365790238,2026-05-20 22:37:07,36.62815828488126,30.527559607108575,150.0,150.0,0.0,-90.0,0.0
32.060928768190834,2026-05-20 22:37:07,36.6281776142703,30.527594558523205,150.0,150.0,0.0,-90.0,0.0
32.161119170591434,2026-05-20 22:37:07,36.62819893019657,30.527634457570564,150.0,150.0,0.0,-90.0,0.0
32.261309572992026,2026-05-20 22:37:07,36.6282207728623,30.52767042570343,150.0,150.0,0.0,-90.0,0.0
32.361499975392626,2026-05-20 22:37:07,36.628241861753814,30.52771370847429,150.0,150.0,0.0,-90.0,0.0
32.46169037779322,2026-05-20 22:37:07,36.62826464207426,30.527751814322496,150.0,150.0,0.0,-90.0,0.0
32.56188078019382,2026-05-20 22:37:07,36.62828491111314,30.527792417208346,150.0,150.0,0.0,-90.0,0.0
32.66207118259441,2026-05-20 22:37:07,36.628305715462176,30.52783723550511,150.0,150.0,0.0,-90.0,0.0
32.76226158499501,2026-05-20 22:37:07,36.62832620507301,30.527881508819885,150.0,150.0,0.0,-90.0,0.0
32.86245198739561,2026-05-20 22:37:07,36.628345563184396,30.52792191641658,150.0,150.0,0.0,-90.0,0.0
32.9626423897962,2026-05-20 22:37:07,36.628365620254954,30.52796221057339,150.0,150.0,0.0,-90.0,0.0
33.0628327921968,2026-05-20 22:37:07,36.6283866749892,30.528010223343212,150.0,150.0,0.0,-90.0,0.0
33.16302319459739,2026-05-20 22:37:07,36.62841101880563,30.528054038544802,150.0,150.0,0.0,-90.0,0.0
33.26321359699799,2026-05-20 22:37:07,36.6284302486944,30.5280976727498,150.0,150.0,0.0,-90.0,0.0
33.363403999398585,2026-05-20 22:37:07,36.62845159919482,30.528146018464017,150.0,150.0,0.0,-90.0,0.0
33.463594401799185,2026-05-20 22:37:07,36.62847240029483,30.528195736264244,150.0,150.0,0.0,-90.0,0.0
33.56378480419978,2026-05-20 22:37:07,36.62849055237562,30.528245220210238,150.0,150.0,0.0,-90.0,0.0
33.66397520660038,2026-05-20 22:37:07,36.62850881293673,30.528295308966417,150.0,150.0,0.0,-90.0,0.0
33.764165609000976,2026-05-20 22:37:07,36.628527617065714,30.528348160367116,150.0,150.0,0.0,-90.0,0.0
33.86435601140157,2026-05-20 22:37:07,36.62855104642347,30.52840395378599,150.0,150.0,0.0,-90.0,0.0
33.96454641380217,2026-05-20 22:37:07,36.62857319353998,30.528457126242373,150.0,150.0,0.0,-90.0,0.0
34.06473681620276,2026-05-20 22:37:07,36.62859307654019,30.528512389182165,150.0,150.0,0.0,-90.0,0.0
34.16492721860336,2026-05-20 22:37:07,36.628615092259814,30.528570109753154,150.0,150.0,0.0,-90.0,0.0
34.26511762100395,2026-05-20 22:37:07,36.62863460354529,30.52862400917011,150.0,150.0,0.0,-90.0,0.0
34.36530802340455,2026-05-20 22:37:07,36.62865298131192,30.52868042626929,150.0,150.0,0.0,-90.0,0.0
34.465498425805144,2026-05-20 22:37:07,36.628673318063335,30.528739260534554,150.0,150.0,0.0,-90.0,0.0
34.565688828205744,2026-05-20 22:37:07,36.62869276931299,30.528798974559137,150.0,150.0,0.0,-90.0,0.0
34.66587923060634,2026-05-20 22:37:07,36.628715203025514,30.528860674483653,150.0,150.0,0.0,-90.0,0.0
34.766069633006936,2026-05-20 22:37:07,36.628737954210976,30.528921991007024,150.0,150.0,0.0,-90.0,0.0
34.866260035407535,2026-05-20 22:37:07,36.62875887250123,30.52898365371952,150.0,150.0,0.0,-90.0,0.0
34.96645043780813,2026-05-20 22:37:07,36.62877917093986,30.529042953815136,150.0,150.0,0.0,-90.0,0.0
35.06664084020873,2026-05-20 22:37:07,36.62880187253654,30.529109430207768,150.0,150.0,0.0,-90.0,0.0
35.16683124260932,2026-05-20 22:37:07,36.62881744099908,30.52917170340932,150.0,150.0,0.0,-90.0,0.0
35.26702164500992,2026-05-20 22:37:07,36.628839076188996,30.52923860006074,150.0,150.0,0.0,-90.0,0.0
35.36721204741051,2026-05-20 22:37:07,36.6288601745061,30.52930380394451,150.0,150.0,0.0,-90.0,0.0
35.46740244981111,2026-05-20 22:37:07,36.62888050747251,30.529374775024106,150.0,150.0,0.0,-90.0,0.0
35.56759285221171,2026-05-20 22:37:07,36.628903488414586,30.52944443249226,150.0,150.0,0.0,-90.0,0.0
35.6677832546123,2026-05-20 22:37:07,36.62892297524265,30.52951065680842,150.0,150.0,0.0,-90.0,0.0
35.7679736570129,2026-05-20 22:37:07,36.628944752173425,30.529578930973397,150.0,150.0,0.0,-90.0,0.0
35.868164059413495,2026-05-20 22:37:07,36.62896263034675,30.529647483276143,150.0,150.0,0.0,-90.0,0.0
35.968354461814094,2026-05-20 22:37:07,36.62898272919835,30.52971816369518,150.0,150.0,0.0,-90.0,0.0
36.06854486421469,2026-05-20 22:37:07,36.62900262888525,30.529786234336278,150.0,150.0,0.0,-90.0,0.0
36.168735266615286,2026-05-20 22:37:07,36.62902186002797,30.529855662053127,150.0,150.0,0.0,-90.0,0.0
36.268925669015886,2026-05-20 22:37:07,36.62904088133898,30.52992559935824,150.0,150.0,0.0,-90.0,0.0
36.36911607141648,2026-05-20 22:37:07,36.62906117242897,30.529998362555915,150.0,150.0,0.0,-90.0,0.0
36.46930647381708,2026-05-20 22:37:07,36.629080348602194,30.530068301088534,150.0,150.0,0.0,-90.0,0.0
36.56949687621767,2026-05-20 22:37:07,36.62910027197683,30.530142257721668,150.0,150.0,0.0,-90.0,0.0
36.66968727861827,2026-05-20 22:37:07,36.629119341454164,30.53021343497981,150.0,150.0,0.0,-90.0,0.0
36.76987768101886,2026-05-20 22:37:07,36.629139918494154,30.530286660746533,150.0,150.0,0.0,-90.0,0.0
36.87006808341946,2026-05-20 22:37:07,36.629158887338924,30.530362947081368,150.0,150.0,0.0,-90.0,0.0
36.970258485820054,2026-05-20 22:37:07,36.62918033912753,30.530441414598105,150.0,150.0,0.0,-90.0,0.0
37.07044888822065,2026-05-20 22:37:07,36.62919821543534,30.53051914947401,150.0,150.0,0.0,-90.0,0.0
37.17063929062125,2026-05-20 22:37:07,36.62922016066545,30.530592276939274,150.0,150.0,0.0,-90.0,0.0
37.270829693021845,2026-05-20 22:37:07,36.62924000886555,30.530668345897926,150.0,150.0,0.0,-90.0,0.0
37.371020095422445,2026-05-20 22:37:07,36.62926023306061,30.53074695596199,150.0,150.0,0.0,-90.0,0.0
37.47121049782304,2026-05-20 22:37:07,36.6292801796811,30.530824839490336,150.0,150.0,0.0,-90.0,0.0
37.57140090022364,2026-05-20 22:37:07,36.62929982369711,30.530901782818752,150.0,150.0,0.0,-90.0,0.0
37.67159130262423,2026-05-20 22:37:07,36.62931988379782,30.53098168249903,150.0,150.0,0.0,-90.0,0.0
37.77178170502483,2026-05-20 22:37:07,36.6293367645792,30.531060548691897,150.0,150.0,0.0,-90.0,0.0
37.87197210742542,2026-05-20 22:37:07,36.62935636096889,30.531139309868276,150.0,150.0,0.0,-90.0,0.0
37.97216250982602,2026-05-20 22:37:07,36.62937713928571,30.531218202802354,150.0,150.0,0.0,-90.0,0.0
38.07235291222662,2026-05-20 22:37:07,36.629397579244774,30.53129891570867,150.0,150.0,0.0,-90.0,0.0
38.17254331462721,2026-05-20 22:37:07,36.62941435143043,30.531380860689033,150.0,150.0,0.0,-90.0,0.0
38.27273371702781,2026-05-20 22:37:07,36.62943221375732,30.531461527790615,150.0,150.0,0.0,-90.0,0.0
38.372924119428404,2026-05-20 22:37:07,36.62944907044188,30.531542686102558,150.0,150.0,0.0,-90.0,0.0
38.473114521829004,2026-05-20 22:37:07,36.62946725932137,30.53162150607967,150.0,150.0,0.0,-90.0,0.0
38.573304924229596,2026-05-20 22:37:07,36.62948853009323,30.531701590179882,150.0,150.0,0.0,-90.0,0.0
38.673495326630196,2026-05-20 22:37:07,36.629510957788355,30.53178100414505,150.0,150.0,0.0,-90.0,0.0
38.77368572903079,2026-05-20 22:37:07,36.629530743987345,30.531859134686286,150.0,150.0,0.0,-90.0,0.0
38.87387613143139,2026-05-20 22:37:07,36.62955177143569,30.531938454617997,150.0,150.0,0.0,-90.0,0.0
38.97406653383199,2026-05-20 22:37:07,36.62956976048424,30.53201824696254,150.0,150.0,0.0,-90.0,0.0
39.07425693623258,2026-05-20 22:37:07,36.62959092789938,30.532102382132997,150.0,150.0,0.0,-90.0,0.0
39.17444733863318,2026-05-20 22:37:07,36.62961089675202,30.5321804520084,150.0,150.0,0.0,-90.0,0.0
39.27463774103377,2026-05-20 22:37:07,36.629632320753636,30.53226056868109,150.0,150.0,0.0,-90.0,0.0
39.37482814343437,2026-05-20 22:37:07,36.62964843017941,30.532343301365636,150.0,150.0,0.0,-90.0,0.0
39.47501854583496,2026-05-20 22:37:07,36.62966779959286,30.5324262172017,150.0,150.0,0.0,-90.0,0.0
39.57520894823556,2026-05-20 22:37:07,36.62968938819906,30.53250603283817,150.0,150.0,0.0,-90.0,0.0
39.675399350636155,2026-05-20 22:37:07,36.629707135791875,30.532588035143252,150.0,150.0,0.0,-90.0,0.0
39.775589753036755,2026-05-20 22:37:07,36.62972864050008,30.532666459320605,150.0,150.0,0.0,-90.0,0.0
39.875780155437354,2026-05-20 22:37:07,36.62974889027417,30.532746162153693,150.0,150.0,0.0,-90.0,0.0
39.97597055783795,2026-05-20 22:37:07,36.62976922772706,30.53282979024636,150.0,150.0,0.0,-90.0,0.0
40.076160960238546,2026-05-20 22:37:07,36.629792841805006,30.532911078151685,150.0,150.0,0.0,-90.0,0.0
40.17635136263914,2026-05-20 22:37:07,36.62981879147678,30.532988814915857,150.0,150.0,0.0,-90.0,0.0
40.27654176503974,2026-05-20 22:37:07,36.62983862856882,30.533069695179375,150.0,150.0,0.0,-90.0,0.0
40.37673216744033,2026-05-20 22:37:07,36.6298605777494,30.533150228959936,150.0,150.0,0.0,-90.0,0.0
40.47692256984093,2026-05-20 22:37:07,36.62987918068586,30.533227890414725,150.0,150.0,0.0,-90.0,0.0
40.57711297224152,2026-05-20 22:37:07,36.62989951111525,30.533306352310756,150.0,150.0,0.0,-90.0,0.0
40.67730337464212,2026-05-20 22:37:07,36.629923886888506,30.53338249089117,150.0,150.0,0.0,-90.0,0.0
40.77749377704272,2026-05-20 22:37:07,36.629944253582636,30.533457524949164,150.0,150.0,0.0,-90.0,0.0
40.877684179443314,2026-05-20 22:37:07,36.6299607134366,30.533535339989644,150.0,150.0,0.0,-90.0,0.0
40.97787458184391,2026-05-20 22:37:07,36.629983036399246,30.533610992046242,150.0,150.0,0.0,-90.0,0.0
41.078064984244506,2026-05-20 22:37:07,36.63000245078749,30.533686398104866,150.0,150.0,0.0,-90.0,0.0
41.178255386645105,2026-05-20 22:37:07,36.630023670337,30.53376221561187,150.0,150.0,0.0,-90.0,0.0
41.2784457890457,2026-05-20 22:37:07,36.63004042296872,30.533838621061655,150.0,150.0,0.0,-90.0,0.0
41.3786361914463,2026-05-20 22:37:07,36.630059931451605,30.533916283313687,150.0,150.0,0.0,-90.0,0.0
41.47882659384689,2026-05-20 22:37:07,36.63008388132873,30.533991425383604,150.0,150.0,0.0,-90.0,0.0
41.57901699624749,2026-05-20 22:37:07,36.630101307530225,30.53406513044598,150.0,150.0,0.0,-90.0,0.0
41.67920739864809,2026-05-20 22:37:07,36.6301211637851,30.534142649717438,150.0,150.0,0.0,-90.0,0.0
41.77939780104868,2026-05-20 22:37:07,36.63014232461614,30.53421810990712,150.0,150.0,0.0,-90.0,0.0
41.87958820344928,2026-05-20 22:37:07,36.63016314050187,30.53429191977478,150.0,150.0,0.0,-90.0,0.0
41.97977860584987,2026-05-20 22:37:07,36.6301806848779,30.534363901689183,150.0,150.0,0.0,-90.0,0.0
42.07996900825047,2026-05-20 22:37:07,36.63020012607538,30.534436155436453,150.0,150.0,0.0,-90.0,0.0
42.180159410651065,2026-05-20 22:37:07,36.6302162455704,30.534508047510744,150.0,150.0,0.0,-90.0,0.0
42.280349813051664,2026-05-20 22:37:07,36.630237236626456,30.53458068060766,150.0,150.0,0.0,-90.0,0.0
42.38054021545226,2026-05-20 22:37:07,36.63025637924584,30.534647940438216,150.0,150.0,0.0,-90.0,0.0
42.480730617852856,2026-05-20 22:37:07,36.63027447736902,30.534717088492478,150.0,150.0,0.0,-90.0,0.0
42.580921020253456,2026-05-20 22:37:07,36.630294036082915,30.53478766387199,150.0,150.0,0.0,-90.0,0.0
42.68111142265405,2026-05-20 22:37:07,36.630311982294806,30.53485416404824,150.0,150.0,0.0,-90.0,0.0
42.78130182505465,2026-05-20 22:37:07,36.630329688457486,30.5349207207617,150.0,150.0,0.0,-90.0,0.0
42.88149222745524,2026-05-20 22:37:07,36.630348750474134,30.534987672179284,150.0,150.0,0.0,-90.0,0.0
42.98168262985584,2026-05-20 22:37:07,36.63036913450953,30.535056986376016,150.0,150.0,0.0,-90.0,0.0
43.08187303225643,2026-05-20 22:37:07,36.630391682120646,30.535123754264333,150.0,150.0,0.0,-90.0,0.0
43.18206343465703,2026-05-20 22:37:07,36.630413435187826,30.53518898363501,150.0,150.0,0.0,-90.0,0.0
43.282253837057624,2026-05-20 22:37:07,36.6304330499668,30.535253777202488,150.0,150.0,0.0,-90.0,0.0
43.38244423945822,2026-05-20 22:37:07,36.63045037843787,30.53531511250752,150.0,150.0,0.0,-90.0,0.0
43.48263464185882,2026-05-20 22:37:07,36.630472786911795,30.535379757639085,150.0,150.0,0.0,-90.0,0.0
43.582825044259415,2026-05-20 22:37:07,36.63049475545678,30.535442967383396,150.0,150.0,0.0,-90.0,0.0
43.683015446660015,2026-05-20 22:37:07,36.630516623900874,30.535509671201414,150.0,150.0,0.0,-90.0,0.0
43.78320584906061,2026-05-20 22:37:07,36.63054042809407,30.53557172209508,150.0,150.0,0.0,-90.0,0.0
43.88339625146121,2026-05-20 22:37:07,36.630557461039494,30.53563524425945,150.0,150.0,0.0,-90.0,0.0
43.9835866538618,2026-05-20 22:37:07,36.63058081756588,30.535690473077192,150.0,150.0,0.0,-90.0,0.0
44.0837770562624,2026-05-20 22:37:07,36.63059997781389,30.53575084030438,150.0,150.0,0.0,-90.0,0.0
44.18396745866299,2026-05-20 22:37:07,36.63062042304257,30.535806836728597,150.0,150.0,0.0,-90.0,0.0
44.28415786106359,2026-05-20 22:37:07,36.630642108670344,30.535859535727695,150.0,150.0,0.0,-90.0,0.0
44.38434826346419,2026-05-20 22:37:07,36.630658848191054,30.5359159134632,150.0,150.0,0.0,-90.0,0.0
44.48453866586478,2026-05-20 22:37:07,36.630676293950884,30.535972950604016,150.0,150.0,0.0,-90.0,0.0
44.58472906826538,2026-05-20 22:37:07,36.63069119786749,30.53602908914065,150.0,150.0,0.0,-90.0,0.0
44.684919470665974,2026-05-20 22:37:07,36.630711725042765,30.536084384756336,150.0,150.0,0.0,-90.0,0.0
44.785109873066574,2026-05-20 22:37:07,36.630731923774015,30.536136330968993,150.0,150.0,0.0,-90.0,0.0
44.885300275467166,2026-05-20 22:37:07,36.6307517840531,30.53619225313505,150.0,150.0,0.0,-90.0,0.0
44.985490677867766,2026-05-20 22:37:07,36.63077756368713,30.536244497444454,150.0,150.0,0.0,-90.0,0.0
45.08568108026836,2026-05-20 22:37:07,36.63079600176077,30.536294423650954,150.0,150.0,0.0,-90.0,0.0
45.18587148266896,2026-05-20 22:37:07,36.63081676501907,30.536340618305708,150.0,150.0,0.0,-90.0,0.0
45.28606188506956,2026-05-20 22:37:07,36.63083550637129,30.536389552586222,150.0,150.0,0.0,-90.0,0.0
45.38625228747015,2026-05-20 22:37:07,36.630854635085136,30.53643620318468,150.0,150.0,0.0,-90.0,0.0
45.48644268987075,2026-05-20 22:37:07,36.630875814763705,30.536482254027867,150.0,150.0,0.0,-90.0,0.0
45.58663309227134,2026-05-20 22:37:07,36.63089687037769,30.53652661346612,150.0,150.0,0.0,-90.0,0.0
45.68682349467194,2026-05-20 22:37:07,36.63091249040104,30.536571716433052,150.0,150.0,0.0,-90.0,0.0
45.78701389707253,2026-05-20 22:37:07,36.63092737450763,30.53661597680427,150.0,150.0,0.0,-90.0,0.0
45.88720429947313,2026-05-20 22:37:07,36.63094379676769,30.536659279572874,150.0,150.0,0.0,-90.0,0.0
45.987394701873725,2026-05-20 22:37:07,36.63096379472505,30.536699463549134,150.0,150.0,0.0,-90.0,0.0
46.087585104274325,2026-05-20 22:37:07,36.63098197732312,30.536740058912248,150.0,150.0,0.0,-90.0,0.0
46.187775506674924,2026-05-20 22:37:07,36.630999594580864,30.536776681629973,150.0,150.0,0.0,-90.0,0.0
46.28796590907552,2026-05-20 22:37:07,36.631019450004395,30.53681336489945,150.0,150.0,0.0,-90.0,0.0
46.388156311476116,2026-05-20 22:37:07,36.631037262164924,30.536851119148675,150.0,150.0,0.0,-90.0,0.0
46.48834671387671,2026-05-20 22:37:07,36.631057376203536,30.53688512645101,150.0,150.0,0.0,-90.0,0.0
46.58853711627731,2026-05-20 22:37:07,36.63107785433849,30.536917711808492,150.0,150.0,0.0,-90.0,0.0
46.6887275186779,2026-05-20 22:37:07,36.6310964736928,30.53695259952362,150.0,150.0,0.0,-90.0,0.0
46.7889179210785,2026-05-20 22:37:07,36.63111517366815,30.53698758171882,150.0,150.0,0.0,-90.0,0.0
46.8891083234791,2026-05-20 22:37:07,36.63113559865023,30.53701916817175,150.0,150.0,0.0,-90.0,0.0
46.98929872587969,2026-05-20 22:37:07,36.63115436568031,30.53704960597381,150.0,150.0,0.0,-90.0,0.0
47.08948912828029,2026-05-20 22:37:07,36.63117601240448,30.53708175506863,150.0,150.0,0.0,-90.0,0.0
47.189679530680884,2026-05-20 22:37:07,36.63119587364278,30.537110997543223,150.0,150.0,0.0,-90.0,0.0
47.289869933081484,2026-05-20 22:37:07,36.63121277386551,30.537140779817573,150.0,150.0,0.0,-90.0,0.0
47.390060335482076,2026-05-20 22:37:07,36.63123403823692,30.53716716033078,150.0,150.0,0.0,-90.0,0.0
47.490250737882675,2026-05-20 22:37:07,36.63125247936903,30.537192096417364,150.0,150.0,0.0,-90.0,0.0
47.59044114028327,2026-05-20 22:37:07,36.63127331949201,30.53721830184359,150.0,150.0,0.0,-90.0,0.0
47.69063154268387,2026-05-20 22:37:07,36.63129179964775,30.5372419952369,150.0,150.0,0.0,-90.0,0.0
47.79082194508447,2026-05-20 22:37:07,36.63131048015515,30.537265228680187,150.0,150.0,0.0,-90.0,0.0
47.89101234748506,2026-05-20 22:37:07,36.63132830503506,30.537287021002783,150.0,150.0,0.0,-90.0,0.0
47.99120274988566,2026-05-20 22:37:07,36.63134671521804,30.537310998505834,150.0,150.0,0.0,-90.0,0.0
48.09139315228625,2026-05-20 22:37:07,36.6313683146853,30.537333245329666,150.0,150.0,0.0,-90.0,0.0
48.19158355468685,2026-05-20 22:37:07,36.63138383341653,30.53735344927253,150.0,150.0,0.0,-90.0,0.0
48.29177395708744,2026-05-20 22:37:07,36.63140299570955,30.537370946042046,150.0,150.0,0.0,-90.0,0.0
48.39196435948804,2026-05-20 22:37:07,36.63142394419713,30.537389312930213,150.0,150.0,0.0,-90.0,0.0
48.492154761888635,2026-05-20 22:37:07,36.63144540908217,30.53740453272955,150.0,150.0,0.0,-90.0,0.0
48.592345164289235,2026-05-20 22:37:07,36.631466638770725,30.537421439749505,150.0,150.0,0.0,-90.0,0.0
48.692535566689834,2026-05-20 22:37:07,36.63148791781096,30.53743634956516,150.0,150.0,0.0,-90.0,0.0
48.79272596909043,2026-05-20 22:37:07,36.63151079861081,30.537455286006974,150.0,150.0,0.0,-90.0,0.0
48.892916371491026,2026-05-20 22:37:07,36.631529185174706,30.537467688689492,150.0,150.0,0.0,-90.0,0.0
48.99310677389162,2026-05-20 22:37:07,36.63154836888806,30.537481121920933,150.0,150.0,0.0,-90.0,0.0
49.09329717629222,2026-05-20 22:37:07,36.63156635945482,30.537495043202146,150.0,150.0,0.0,-90.0,0.0
49.19348757869281,2026-05-20 22:37:07,36.63158755831125,30.53750387414254,150.0,150.0,0.0,-90.0,0.0
49.29367798109341,2026-05-20 22:37:07,36.631603935980635,30.537510600665136,150.0,150.0,0.0,-90.0,0.0
49.393868383494,2026-05-20 22:37:07,36.631626636049894,30.537515279749453,150.0,150.0,0.0,-90.0,0.0
49.4940587858946,2026-05-20 22:37:07,36.631648028503605,30.53752219371097,150.0,150.0,0.0,-90.0,0.0
49.5942491882952,2026-05-20 22:37:07,36.63166705350322,30.5375281768128,150.0,150.0,0.0,-90.0,0.0
49.694439590695794,2026-05-20 22:37:07,36.63168792178664,30.537530889837715,150.0,150.0,0.0,-90.0,0.0
49.79462999309639,2026-05-20 22:37:07,36.6317090771025,30.53753898554073,150.0,150.0,0.0,-90.0,0.0
49.894820395496986,2026-05-20 22:37:07,36.631730485943436,30.537545708649166,150.0,150.0,0.0,-90.0,0.0
49.995010797897585,2026-05-20 22:37:07,36.63175089876107,30.53754833608224,150.0,150.0,0.0,-90.0,0.0
50.09520120029818,2026-05-20 22:37:07,36.63177099349814,30.537551803553793,150.0,150.0,0.0,-90.0,0.0
50.19539160269878,2026-05-20 22:37:07,36.63179142930047,30.53755668791111,150.0,150.0,0.0,-90.0,0.0
50.29558200509937,2026-05-20 22:37:07,36.63180884270983,30.537557168713853,150.0,150.0,0.0,-90.0,0.0
50.39577240749997,2026-05-20 22:37:07,36.631829756780164,30.537556545055804,150.0,150.0,0.0,-90.0,0.0
50.49596280990057,2026-05-20 22:37:07,36.63184976543501,30.537554125873086,150.0,150.0,0.0,-90.0,0.0
50.59615321230116,2026-05-20 22:37:07,36.63187130953354,30.5375511620665,150.0,150.0,0.0,-90.0,0.0
50.69634361470176,2026-05-20 22:37:07,36.63189038876737,30.53754661949256,150.0,150.0,0.0,-90.0,0.0
50.79653401710235,2026-05-20 22:37:07,36.631913180739815,30.537540962786352,150.0,150.0,0.0,-90.0,0.0
50.89672441950295,2026-05-20 22:37:07,36.63193192928993,30.53753634592008,150.0,150.0,0.0,-90.0,0.0
50.996914821903545,2026-05-20 22:37:07,36.63195332282513,30.53753035489151,150.0,150.0,0.0,-90.0,0.0
51.097105224304144,2026-05-20 22:37:07,36.631976062282504,30.537527252723184,150.0,150.0,0.0,-90.0,0.0
51.19729562670474,2026-05-20 22:37:07,36.63200006814351,30.537520912258415,150.0,150.0,0.0,-90.0,0.0
51.297486029105336,2026-05-20 22:37:07,36.632018330529476,30.537515676644556,150.0,150.0,0.0,-90.0,0.0
51.397676431505936,2026-05-20 22:37:07,36.63203776325372,30.537509517085674,150.0,150.0,0.0,-90.0,0.0
51.49786683390653,2026-05-20 22:37:07,36.6320601382392,30.53750013480534,150.0,150.0,0.0,-90.0,0.0
51.59805723630713,2026-05-20 22:37:07,36.63208170863999,30.537489490735716,150.0,150.0,0.0,-90.0,0.0
51.69824763870772,2026-05-20 22:37:07,36.63210154452128,30.537481028301716,150.0,150.0,0.0,-90.0,0.0
51.79843804110832,2026-05-20 22:37:07,36.63212208727855,30.537469572563168,150.0,150.0,0.0,-90.0,0.0
51.89862844350891,2026-05-20 22:37:07,36.632138878234805,30.5374563716058,150.0,150.0,0.0,-90.0,0.0
51.99881884590951,2026-05-20 22:37:07,36.6321604056349,30.53744442711812,150.0,150.0,0.0,-90.0,0.0
52.099009248310104,2026-05-20 22:37:07,36.632179476044435,30.53743023330777,150.0,150.0,0.0,-90.0,0.0
52.1991996507107,2026-05-20 22:37:07,36.63219650029191,30.537415260630855,150.0,150.0,0.0,-90.0,0.0
52.2993900531113,2026-05-20 22:37:07,36.63221670817175,30.537407910385543,150.0,150.0,0.0,-90.0,0.0
52.399580455511895,2026-05-20 22:37:07,36.63223705309897,30.53739433168185,150.0,150.0,0.0,-90.0,0.0
52.499770857912495,2026-05-20 22:37:07,36.63225795355439,30.53738013202141,150.0,150.0,0.0,-90.0,0.0
52.59996126031309,2026-05-20 22:37:07,36.632275134426884,30.53736617182149,150.0,150.0,0.0,-90.0,0.0
52.70015166271369,2026-05-20 22:37:07,36.63229541919019,30.53734813779471,150.0,150.0,0.0,-90.0,0.0
52.80034206511428,2026-05-20 22:37:07,36.632317030862865,30.53733540528835,150.0,150.0,0.0,-90.0,0.0
52.90053246751488,2026-05-20 22:37:07,36.63233763008911,30.53731947959342,150.0,150.0,0.0,-90.0,0.0
53.00072286991547,2026-05-20 22:37:07,36.63235688402439,30.537304454489448,150.0,150.0,0.0,-90.0,0.0
53.10091327231607,2026-05-20 22:37:07,36.63237771413966,30.53728390744293,150.0,150.0,0.0,-90.0,0.0
53.20110367471667,2026-05-20 22:37:07,36.63239870431623,30.53726769017939,150.0,150.0,0.0,-90.0,0.0
53.30129407711726,2026-05-20 22:37:07,36.632419816828765,30.53724963558258,150.0,150.0,0.0,-90.0,0.0
53.40148447951786,2026-05-20 22:37:07,36.63243745946221,30.537230417174243,150.0,150.0,0.0,-90.0,0.0
53.501674881918454,2026-05-20 22:37:07,36.63245602781262,30.537212314388494,150.0,150.0,0.0,-90.0,0.0
53.601865284319054,2026-05-20 22:37:07,36.632473540150286,30.537193050212885,150.0,150.0,0.0,-90.0,0.0
53.702055686719646,2026-05-20 22:37:07,36.632494245987004,30.537177220061388,150.0,150.0,0.0,-90.0,0.0
53.802246089120246,2026-05-20 22:37:07,36.632516272430635,30.53716127311395,150.0,150.0,0.0,-90.0,0.0
53.90243649152084,2026-05-20 22:37:07,36.632534934414444,30.537142167445587,150.0,150.0,0.0,-90.0,0.0
54.00262689392144,2026-05-20 22:37:07,36.632553585921585,30.53712367311002,150.0,150.0,0.0,-90.0,0.0
54.10281729632204,2026-05-20 22:37:07,36.632573737284,30.537103790935358,150.0,150.0,0.0,-90.0,0.0
54.20300769872263,2026-05-20 22:37:07,36.63259526055336,30.53708850755575,150.0,150.0,0.0,-90.0,0.0
54.30319810112323,2026-05-20 22:37:07,36.63261288520749,30.537066723254803,150.0,150.0,0.0,-90.0,0.0
54.40338850352382,2026-05-20 22:37:07,36.63263567562797,30.537048493032778,150.0,150.0,0.0,-90.0,0.0
54.50357890592442,2026-05-20 22:37:07,36.63265543676679,30.537029099833717,150.0,150.0,0.0,-90.0,0.0
54.60376930832501,2026-05-20 22:37:07,36.63267228228818,30.5370117672749,150.0,150.0,0.0,-90.0,0.0
54.70395971072561,2026-05-20 22:37:07,36.63269143023159,30.53699251278109,150.0,150.0,0.0,-90.0,0.0
54.804150113126205,2026-05-20 22:37:07,36.63270737875036,30.53697022133518,150.0,150.0,0.0,-90.0,0.0
54.904340515526805,2026-05-20 22:37:07,36.6327245735323,30.53695121727171,150.0,150.0,0.0,-90.0,0.0
55.004530917927404,2026-05-20 22:37:07,36.63274219821738,30.536933002775275,150.0,150.0,0.0,-90.0,0.0
55.104721320328,2026-05-20 22:37:07,36.63276325858564,30.5369121653278,150.0,150.0,0.0,-90.0,0.0
55.204911722728596,2026-05-20 22:37:07,36.63278360974595,30.53689346740596,150.0,150.0,0.0,-90.0,0.0
55.30510212512919,2026-05-20 22:37:07,36.63280266261185,30.536873694890687,150.0,150.0,0.0,-90.0,0.0
55.40529252752979,2026-05-20 22:37:07,36.63282334332976,30.53685411724185,150.0,150.0,0.0,-90.0,0.0
55.50548292993038,2026-05-20 22:37:07,36.6328445967582,30.536836049227237,150.0,150.0,0.0,-90.0,0.0
55.60567333233098,2026-05-20 22:37:07,36.632863506763535,30.53681117579328,150.0,150.0,0.0,-90.0,0.0
55.70586373473157,2026-05-20 22:37:07,36.63288451861533,30.536792929212584,150.0,150.0,0.0,-90.0,0.0
55.80605413713217,2026-05-20 22:37:07,36.63290232329566,30.536775361303135,150.0,150.0,0.0,-90.0,0.0
55.90624453953277,2026-05-20 22:37:07,36.6329212888094,30.53675582104982,150.0,150.0,0.0,-90.0,0.0
56.006434941933364,2026-05-20 22:37:07,36.632942316911475,30.536734967095942,150.0,150.0,0.0,-90.0,0.0
56.10662534433396,2026-05-20 22:37:07,36.63296391682583,30.536718545971222,150.0,150.0,0.0,-90.0,0.0
56.206815746734556,2026-05-20 22:37:07,36.632982126180835,30.536698542662037,150.0,150.0,0.0,-90.0,0.0
56.307006149135155,2026-05-20 22:37:07,36.63300279108355,30.536682174360987,150.0,150.0,0.0,-90.0,0.0
56.40719655153575,2026-05-20 22:37:07,36.63302396157577,30.536662516455152,150.0,150.0,0.0,-90.0,0.0
56.50738695393635,2026-05-20 22:37:07,36.63304527554596,30.536645629431444,150.0,150.0,0.0,-90.0,0.0
56.60757735633695,2026-05-20 22:37:07,36.6330639385996,30.53662829196479,150.0,150.0,0.0,-90.0,0.0
56.70776775873754,2026-05-20 22:37:07,36.63308294698493,30.53661510437273,150.0,150.0,0.0,-90.0,0.0
56.80795816113814,2026-05-20 22:37:07,36.63310130645037,30.536600467944485,150.0,150.0,0.0,-90.0,0.0
56.90814856353873,2026-05-20 22:37:07,36.63312037257836,30.536588269123637,150.0,150.0,0.0,-90.0,0.0
57.00833896593933,2026-05-20 22:37:07,36.63314351262557,30.5365715862765,150.0,150.0,0.0,-90.0,0.0
57.10852936833992,2026-05-20 22:37:07,36.63315812930565,30.536559283668137,150.0,150.0,0.0,-90.0,0.0
57.20871977074052,2026-05-20 22:37:07,36.63317629048417,30.536542557751627,150.0,150.0,0.0,-90.0,0.0
57.308910173141115,2026-05-20 22:37:07,36.63319577819376,30.53652927694012,150.0,150.0,0.0,-90.0,0.0
57.409100575541714,2026-05-20 22:37:07,36.633214320078004,30.53651700002699,150.0,150.0,0.0,-90.0,0.0
57.509290977942314,2026-05-20 22:37:07,36.63323501585752,30.536505804533725,150.0,150.0,0.0,-90.0,0.0
57.609481380342906,2026-05-20 22:37:07,36.63325411860567,30.536495263764692,150.0,150.0,0.0,-90.0,0.0
57.709671782743506,2026-05-20 22:37:07,36.633273469234034,30.53648280085097,150.0,150.0,0.0,-90.0,0.0
57.8098621851441,2026-05-20 22:37:07,36.6332943820056,30.536472185826554,150.0,150.0,0.0,-90.0,0.0
57.9100525875447,2026-05-20 22:37:07,36.63331537331117,30.53646271816896,150.0,150.0,0.0,-90.0,0.0
58.01024298994529,2026-05-20 22:37:07,36.63333378837216,30.536451640610533,150.0,150.0,0.0,-90.0,0.0
58.11043339234589,2026-05-20 22:37:07,36.6333563174536,30.53644023728462,150.0,150.0,0.0,-90.0,0.0
58.21062379474648,2026-05-20 22:37:07,36.63337764259242,30.53643003266876,150.0,150.0,0.0,-90.0,0.0
58.31081419714708,2026-05-20 22:37:07,36.63339380859919,30.536420518625516,150.0,150.0,0.0,-90.0,0.0
58.41100459954768,2026-05-20 22:37:07,36.63341557385528,30.536410531993035,150.0,150.0,0.0,-90.0,0.0
58.51119500194827,2026-05-20 22:37:07,36.633438812377065,30.53640383594392,150.0,150.0,0.0,-90.0,0.0
58.61138540434887,2026-05-20 22:37:07,36.63345749195394,30.5363934048146,150.0,150.0,0.0,-90.0,0.0
58.711575806749465,2026-05-20 22:37:07,36.63347661665223,30.53638424372969,150.0,150.0,0.0,-90.0,0.0
58.811766209150065,2026-05-20 22:37:07,36.63349867376168,30.53638160996679,150.0,150.0,0.0,-90.0,0.0
58.91195661155066,2026-05-20 22:37:07,36.633518333436804,30.53637789258603,150.0,150.0,0.0,-90.0,0.0
59.01214701395126,2026-05-20 22:37:07,36.63353796846545,30.536376194291623,150.0,150.0,0.0,-90.0,0.0
59.11233741635185,2026-05-20 22:37:07,36.63355919022631,30.536371793847433,150.0,150.0,0.0,-90.0,0.0
